{"type": "FeatureCollection", "features": [{"type": "Feature", "geometry": {"type": "Point", "coordinates": [77.85090472554897, 30.932840752887913]}, "properties": {"name_of_to": "TIUNI", "district": "DEHRA DUN"}}, {"type": "Feature", "geometry": {"type": "Point", "coordinates": [77.857835142477, 30.744048078765886]}, "properties": {"name_of_to": "DEOBAN", "district": "DEHRA DUN"}}, {"type": "Feature", "geometry": {"type": "Point", "coordinates": [77.8748721196072, 30.676936481514506]}, "properties": {"name_of_to": "KAILANA", "district": "DEHRA DUN"}}, {"type": "Feature", "geometry": {"type": "Point", "coordinates": [77.87506995441413, 30.611056584153047]}, "properties": {"name_of_to": "SAHIYA", "district": "DEHRA DUN"}}, {"type": "Feature", "geometry": {"type": "Point", "coordinates": [77.83881869649983, 30.528326896370427]}, "properties": {"name_of_to": "KALSI", "district": "DEHRA DUN"}}, {"type": "Feature", "geometry": {"type": "Point", "coordinates": [77.80645647541726, 30.390406677262536]}, "properties": {"name_of_to": "SAHASPUR", "district": "DEHRA DUN"}}, {"type": "Feature", "geometry": {"type": "Point", "coordinates": [77.72241786795739, 30.372610419484943]}, "properties": {"name_of_to": "TIMLI", "district": "DEHRA DUN"}}, {"type": "Feature", "geometry": {"type": "Point", "coordinates": [77.93723962655248, 30.339820143529835]}, "properties": {"name_of_to": "JHAJRA", "district": "DEHRA DUN"}}, {"type": "Feature", "geometry": {"type": "Point", "coordinates": [78.07817062025653, 30.44778377094161]}, "properties": {"name_of_to": "MUSSOORIE", "district": "DEHRA DUN"}}, {"type": "Feature", "geometry": {"type": "Point", "coordinates": [78.10189196320901, 30.455741027989426]}, "properties": {"name_of_to": "CANTT", "district": "DEHRADUN"}}, {"type": "Feature", "geometry": {"type": "Point", "coordinates": [78.09660523522956, 30.39552602213297]}, "properties": {"name_of_to": "RAJPUR", "district": "DEHRA DUN"}}, {"type": "Feature", "geometry": {"type": "Point", "coordinates": [78.00884611717039, 30.28630609921139]}, "properties": {"name_of_to": "MAJRA", "district": "DEHRA DUN"}}, {"type": "Feature", "geometry": {"type": "Point", "coordinates": [78.01176568754083, 30.255797790909604]}, "properties": {"name_of_to": "CLEMENT TOWN", "district": "DEHRA DUN"}}, {"type": "Feature", "geometry": {"type": "Point", "coordinates": [78.09581295383478, 30.30426634871112]}, "properties": {"name_of_to": "RAIPUR", "district": "DEHRA DUN"}}, {"type": "Feature", "geometry": {"type": "Point", "coordinates": [78.11297788549483, 30.175333064893792]}, "properties": {"name_of_to": "DOIWALA", "district": "DEHRA DUN"}}, {"type": "Feature", "geometry": {"type": "Point", "coordinates": [78.2194624273191, 30.1789150700412]}, "properties": {"name_of_to": "RANI POKHRI", "district": "DEHRA DUN"}}, {"type": "Feature", "geometry": {"type": "Point", "coordinates": [78.22872091226719, 30.01920056709764]}, "properties": {"name_of_to": "RAIWALA", "district": "DEHRA DUN"}}, {"type": "Feature", "geometry": {"type": "Point", "coordinates": [78.14639654077301, 29.92183296461493]}, "properties": {"name_of_to": "KANKHAL", "district": "HARIDWAR"}}, {"type": "Feature", "geometry": {"type": "Point", "coordinates": [78.10826582871717, 29.92834656579091]}, "properties": {"name_of_to": "JWALAPUR", "district": "HARIDWAR"}}, {"type": "Feature", "geometry": {"type": "Point", "coordinates": [77.80724831600105, 29.93479631478169]}, "properties": {"name_of_to": "BHAGWANPUR", "district": "HARIDWAR"}}, {"type": "Feature", "geometry": {"type": "Point", "coordinates": [77.85069917558172, 30.00355268634132]}, "properties": {"name_of_to": "SAKRAUDA", "district": "HARIDWAR"}}, {"type": "Feature", "geometry": {"type": "Point", "coordinates": [77.87577791968717, 29.78771112814713]}, "properties": {"name_of_to": "MANGLAUR", "district": "HARIDWAR"}}, {"type": "Feature", "geometry": {"type": "Point", "coordinates": [78.11429785439483, 29.75451263888306]}, "properties": {"name_of_to": "SULTANPUR", "district": "HARIDWAR"}}, {"type": "Feature", "geometry": {"type": "Point", "coordinates": [77.77534367045389, 29.805216528667223]}, "properties": {"name_of_to": "JABARHERA", "district": "HARIDWAR"}}, {"type": "Feature", "geometry": {"type": "Point", "coordinates": [78.32987451174513, 29.840822944039544]}, "properties": {"name_of_to": "LAL DHANG", "district": "GARHWAL"}}, {"type": "Feature", "geometry": {"type": "Point", "coordinates": [78.61075797296022, 29.789844640311333]}, "properties": {"name_of_to": "DUGADDA", "district": "GARHWAL"}}, {"type": "Feature", "geometry": {"type": "Point", "coordinates": [78.64212179441293, 29.924007826027392]}, "properties": {"name_of_to": "DWARIKHAL", "district": "GARHWAL"}}, {"type": "Feature", "geometry": {"type": "Point", "coordinates": [78.70192283488538, 29.951401682631452]}, "properties": {"name_of_to": "BANGHAT", "district": "GARHWAL"}}, {"type": "Feature", "geometry": {"type": "Point", "coordinates": [78.89550939885433, 29.713775987794268]}, "properties": {"name_of_to": "BADIYARGAON", "district": "GARHWAL"}}, {"type": "Feature", "geometry": {"type": "Point", "coordinates": [78.93092559069676, 29.632806793298855]}, "properties": {"name_of_to": "KANDA", "district": "GARHWAL"}}, {"type": "Feature", "geometry": {"type": "Point", "coordinates": [78.90310051289293, 29.803352037769287]}, "properties": {"name_of_to": "CHURANI", "district": "GARHWAL"}}, {"type": "Feature", "geometry": {"type": "Point", "coordinates": [79.04293695245006, 29.83801378584411]}, "properties": {"name_of_to": "BIRONKHAL", "district": "GARHWAL"}}, {"type": "Feature", "geometry": {"type": "Point", "coordinates": [78.91478613836276, 29.918105110353018]}, "properties": {"name_of_to": "POKHRA", "district": "GARHWAL"}}, {"type": "Feature", "geometry": {"type": "Point", "coordinates": [79.18135645690559, 29.955177152425037]}, "properties": {"name_of_to": "BUNGIDHAR", "district": "GARHWAL"}}, {"type": "Feature", "geometry": {"type": "Point", "coordinates": [78.82021226728003, 29.899506854951873]}, "properties": {"name_of_to": "RITHAKHAL", "district": "GARHWAL"}}, {"type": "Feature", "geometry": {"type": "Point", "coordinates": [78.61577251707769, 30.06203678128937]}, "properties": {"name_of_to": "VYASGHAT", "district": "GARHWAL"}}, {"type": "Feature", "geometry": {"type": "Point", "coordinates": [78.7889985560129, 30.07184049585416]}, "properties": {"name_of_to": "JOSHYANA", "district": "GARHWAL"}}, {"type": "Feature", "geometry": {"type": "Point", "coordinates": [78.93624700500948, 30.108458660001954]}, "properties": {"name_of_to": "MUSAGALI", "district": "GARHWAL"}}, {"type": "Feature", "geometry": {"type": "Point", "coordinates": [78.4459271026982, 29.93688379235096]}, "properties": {"name_of_to": "KANDI", "district": "GARHWAL"}}, {"type": "Feature", "geometry": {"type": "Point", "coordinates": [78.41860841420946, 30.06745965535488]}, "properties": {"name_of_to": "BIJNI", "district": "GARHWAL"}}, {"type": "Feature", "geometry": {"type": "Point", "coordinates": [78.39467498661702, 30.14415700105697]}, "properties": {"name_of_to": "SHIVPURI", "district": "TEHRI GARHWAL"}}, {"type": "Feature", "geometry": {"type": "Point", "coordinates": [79.17296859760114, 30.279856520896743]}, "properties": {"name_of_to": "GAUCHAR", "district": "CHAMOLI"}}, {"type": "Feature", "geometry": {"type": "Point", "coordinates": [79.33862385470425, 30.331727373859877]}, "properties": {"name_of_to": "NANDAPRAYAG", "district": "CHAMOLI"}}, {"type": "Feature", "geometry": {"type": "Point", "coordinates": [79.24642757450967, 30.15593104409531]}, "properties": {"name_of_to": "ADBADRI", "district": "CHAMOLI"}}, {"type": "Feature", "geometry": {"type": "Point", "coordinates": [79.59813739916598, 30.261804964187483]}, "properties": {"name_of_to": "KANOL", "district": "CHAMOLI"}}, {"type": "Feature", "geometry": {"type": "Point", "coordinates": [79.46209107398442, 30.24988955169831]}, "properties": {"name_of_to": "GHAT", "district": "CHAMOLI"}}, {"type": "Feature", "geometry": {"type": "Point", "coordinates": [79.44378308320921, 30.431037016508906]}, "properties": {"name_of_to": "PIPALKOTI", "district": "CHAMOLI"}}, {"type": "Feature", "geometry": {"type": "Point", "coordinates": [79.61772927854967, 30.127230120621288]}, "properties": {"name_of_to": "BAGRIGAD", "district": "CHAMOLI"}}, {"type": "Feature", "geometry": {"type": "Point", "coordinates": [79.78893037169603, 30.06451772003192]}, "properties": {"name_of_to": "HARMAL", "district": "CHAMOLI"}}, {"type": "Feature", "geometry": {"type": "Point", "coordinates": [79.57128167302253, 30.019444150082144]}, "properties": {"name_of_to": "GWALDAM", "district": "CHAMOLI"}}, {"type": "Feature", "geometry": {"type": "Point", "coordinates": [79.82427542118687, 30.6465615705016]}, "properties": {"name_of_to": "JELAM", "district": "CHAMOLI"}}, {"type": "Feature", "geometry": {"type": "Point", "coordinates": [79.75738265344097, 30.541575716061065]}, "properties": {"name_of_to": "SURAITHOTA", "district": "CHAMOLI"}}, {"type": "Feature", "geometry": {"type": "Point", "coordinates": [79.56148799398693, 30.64149859665159]}, "properties": {"name_of_to": "PANDUKESHWAR", "district": "CHAMOLI"}}, {"type": "Feature", "geometry": {"type": "Point", "coordinates": [79.52354119937128, 30.698675725153148]}, "properties": {"name_of_to": "HANUMAN CHATTI", "district": "CHAMOLI"}}, {"type": "Feature", "geometry": {"type": "Point", "coordinates": [79.50660978377205, 30.781111756399817]}, "properties": {"name_of_to": "MANA", "district": "CHAMOLI"}}, {"type": "Feature", "geometry": {"type": "Point", "coordinates": [79.2261239743677, 30.637327937910946]}, "properties": {"name_of_to": "MADHYAMAHESHWAR", "district": "RUDRAPRAYAG"}}, {"type": "Feature", "geometry": {"type": "Point", "coordinates": [79.8547646703838, 30.777316579765145]}, "properties": {"name_of_to": "NITI", "district": "CHAMOLI"}}, {"type": "Feature", "geometry": {"type": "Point", "coordinates": [79.82826419412483, 30.740662532497783]}, "properties": {"name_of_to": "BAMPA", "district": "CHAMOLI"}}, {"type": "Feature", "geometry": {"type": "Point", "coordinates": [79.91692715862612, 30.679159888610073]}, "properties": {"name_of_to": "MALARI", "district": "CHAMOLI"}}, {"type": "Feature", "geometry": {"type": "Point", "coordinates": [78.22211432129447, 31.176926360417458]}, "properties": {"name_of_to": "RARI", "district": "UTTARKASHI"}}, {"type": "Feature", "geometry": {"type": "Point", "coordinates": [78.29987198154168, 31.081735168906526]}, "properties": {"name_of_to": "DATMIR", "district": "UTTARKASHI"}}, {"type": "Feature", "geometry": {"type": "Point", "coordinates": [78.11867217805214, 31.064508977911704]}, "properties": {"name_of_to": "GAINCHWAN", "district": "UTTARKASHI"}}, {"type": "Feature", "geometry": {"type": "Point", "coordinates": [77.93903885894714, 31.057781461040985]}, "properties": {"name_of_to": "BALCHA", "district": "UTTARKASHI"}}, {"type": "Feature", "geometry": {"type": "Point", "coordinates": [78.11285810268835, 30.93379176389229]}, "properties": {"name_of_to": "RAMA", "district": "UTTARKASHI"}}, {"type": "Feature", "geometry": {"type": "Point", "coordinates": [78.2215981220274, 30.958934194806588]}, "properties": {"name_of_to": "SAR", "district": "UTTARKASHI"}}, {"type": "Feature", "geometry": {"type": "Point", "coordinates": [78.45897113506015, 31.01393203558728]}, "properties": {"name_of_to": "YAMNOTRI", "district": "UTTARKASHI"}}, {"type": "Feature", "geometry": {"type": "Point", "coordinates": [78.4576840148768, 30.965074711049137]}, "properties": {"name_of_to": "KHARSALI", "district": "UTTARKASHI"}}, {"type": "Feature", "geometry": {"type": "Point", "coordinates": [78.31381173810804, 30.864758901316524]}, "properties": {"name_of_to": "KUTHNAUR", "district": "UTTARKASHI"}}, {"type": "Feature", "geometry": {"type": "Point", "coordinates": [78.56437603431928, 30.956459162167878]}, "properties": {"name_of_to": "KANATAL", "district": "UTTARKASHI"}}, {"type": "Feature", "geometry": {"type": "Point", "coordinates": [78.54455858446413, 30.74467652647338]}, "properties": {"name_of_to": "MANERI", "district": "UTTARKSHI"}}, {"type": "Feature", "geometry": {"type": "Point", "coordinates": [78.67191313710481, 30.7721620278462]}, "properties": {"name_of_to": "PILANG", "district": "UTTARKASHI"}}, {"type": "Feature", "geometry": {"type": "Point", "coordinates": [78.66737062009166, 30.897156765788658]}, "properties": {"name_of_to": "GANGNANI", "district": "UTTARKASHI"}}, {"type": "Feature", "geometry": {"type": "Point", "coordinates": [78.71941965491263, 31.04265142062973]}, "properties": {"name_of_to": "PURGA BANDARPUNCH", "district": "UTTARKASHI"}}, {"type": "Feature", "geometry": {"type": "Point", "coordinates": [78.88685561025882, 31.027809196560085]}, "properties": {"name_of_to": "BAIRONGHATI", "district": "UTTARKASHI"}}, {"type": "Feature", "geometry": {"type": "Point", "coordinates": [79.05247796399419, 31.15836881954653]}, "properties": {"name_of_to": "JADHANG", "district": "UTTARKASHI"}}, {"type": "Feature", "geometry": {"type": "Point", "coordinates": [79.1042589881378, 31.245255726669946]}, "properties": {"name_of_to": "ANGAR", "district": "UTTARKASHI"}}, {"type": "Feature", "geometry": {"type": "Point", "coordinates": [78.50658709997394, 30.69317413235176]}, "properties": {"name_of_to": "KISHANPUR", "district": "UTTARKASHI"}}, {"type": "Feature", "geometry": {"type": "Point", "coordinates": [78.32307997532097, 30.622588688711733]}, "properties": {"name_of_to": "DHARASU", "district": "TEHRI GARHWAL"}}, {"type": "Feature", "geometry": {"type": "Point", "coordinates": [78.52049200031902, 30.610245937667308]}, "properties": {"name_of_to": "BHETIARA", "district": "UTTARKASHI"}}, {"type": "Feature", "geometry": {"type": "Point", "coordinates": [78.47784818472134, 30.58189040171438]}, "properties": {"name_of_to": "MUKHEM", "district": "TEHRI GARHWAL"}}, {"type": "Feature", "geometry": {"type": "Point", "coordinates": [78.67438833159441, 30.661459626823156]}, "properties": {"name_of_to": "PINSWAR", "district": "TEHRI GARHWAL"}}, {"type": "Feature", "geometry": {"type": "Point", "coordinates": [78.21031349829995, 30.8043819547337]}, "properties": {"name_of_to": "BARKOT", "district": "UTTARKASHI"}}, {"type": "Feature", "geometry": {"type": "Point", "coordinates": [78.06496462737394, 30.588657692140046]}, "properties": {"name_of_to": "MIYANI", "district": "TEHRI GARHWAL"}}, {"type": "Feature", "geometry": {"type": "Point", "coordinates": [78.37269465904782, 30.507211496432685]}, "properties": {"name_of_to": "CHHAM", "district": "TEHRI GARHWAL"}}, {"type": "Feature", "geometry": {"type": "Point", "coordinates": [78.4882352410501, 30.50229329170621]}, "properties": {"name_of_to": "LAMBGAON", "district": "TEHRI GARHWAL"}}, {"type": "Feature", "geometry": {"type": "Point", "coordinates": [78.61025026552083, 30.363519243718308]}, "properties": {"name_of_to": "MOLNARI", "district": "TEHRI GARHWAL"}}, {"type": "Feature", "geometry": {"type": "Point", "coordinates": [80.15560387140222, 30.436665538247357]}, "properties": {"name_of_to": "MILAM", "district": "PITHORAGARH"}}, {"type": "Feature", "geometry": {"type": "Point", "coordinates": [80.19954678034509, 30.34392051082028]}, "properties": {"name_of_to": "MARTOLI", "district": "PITHORAGARH"}}, {"type": "Feature", "geometry": {"type": "Point", "coordinates": [80.22753337615441, 30.315814955323958]}, "properties": {"name_of_to": "SUMDU", "district": "PITHORAGARH"}}, {"type": "Feature", "geometry": {"type": "Point", "coordinates": [80.28981110438436, 30.31361269025498]}, "properties": {"name_of_to": "RALAM", "district": "PITHORAGARH"}}, {"type": "Feature", "geometry": {"type": "Point", "coordinates": [80.49395934535286, 30.31842265767675]}, "properties": {"name_of_to": "MAROHA", "district": "PITHORAGARH"}}, {"type": "Feature", "geometry": {"type": "Point", "coordinates": [80.55718748909169, 30.201810851920055]}, "properties": {"name_of_to": "BALING", "district": "PITHORAGARH"}}, {"type": "Feature", "geometry": {"type": "Point", "coordinates": [80.77617195529845, 30.31548977949436]}, "properties": {"name_of_to": "KUTHI", "district": "PITHORAGARH"}}, {"type": "Feature", "geometry": {"type": "Point", "coordinates": [80.84757998682804, 30.202747668953638]}, "properties": {"name_of_to": "NIHAL(NAYAL)", "district": "PITHORAGARH"}}, {"type": "Feature", "geometry": {"type": "Point", "coordinates": [80.83573116743663, 30.10201521321998]}, "properties": {"name_of_to": "MALIPA(MALPA)", "district": "PITHORAGARH"}}, {"type": "Feature", "geometry": {"type": "Point", "coordinates": [80.58552432094805, 30.072834510096662]}, "properties": {"name_of_to": "SOBALA", "district": "PITHORAGARH"}}, {"type": "Feature", "geometry": {"type": "Point", "coordinates": [80.59887071187909, 29.962998843815523]}, "properties": {"name_of_to": "KHELA", "district": "PITHORAGARH"}}, {"type": "Feature", "geometry": {"type": "Point", "coordinates": [80.70873034053034, 30.007570464514007]}, "properties": {"name_of_to": "JIBTI(JIPTI)", "district": "PITHORAGARH"}}, {"type": "Feature", "geometry": {"type": "Point", "coordinates": [80.14741931630887, 29.94967557017048]}, "properties": {"name_of_to": "TEJAM", "district": "PITHORAGARH"}}, {"type": "Feature", "geometry": {"type": "Point", "coordinates": [80.28837079715618, 29.92679265961656]}, "properties": {"name_of_to": "DHAMIGAON", "district": "PITHORAGARH"}}, {"type": "Feature", "geometry": {"type": "Point", "coordinates": [80.13917671044592, 29.815890813638028]}, "properties": {"name_of_to": "THAL", "district": "PITHORAGARH"}}, {"type": "Feature", "geometry": {"type": "Point", "coordinates": [80.06370113330367, 29.793056573504888]}, "properties": {"name_of_to": "BERINAG", "district": "PITHORAGARH"}}, {"type": "Feature", "geometry": {"type": "Point", "coordinates": [80.02163578311591, 29.873241062985024]}, "properties": {"name_of_to": "DHARAMGHAR", "district": "PITHORAGARH"}}, {"type": "Feature", "geometry": {"type": "Point", "coordinates": [79.93875497417226, 29.724772527039057]}, "properties": {"name_of_to": "GANAI", "district": "PITHORAGARH"}}, {"type": "Feature", "geometry": {"type": "Point", "coordinates": [80.10712182405234, 29.526615006552696]}, "properties": {"name_of_to": "RAMESHWAR", "district": "PITHORAGARH"}}, {"type": "Feature", "geometry": {"type": "Point", "coordinates": [80.1128297369858, 29.47093008364731]}, "properties": {"name_of_to": "CHHIRA", "district": "CHAMPAWAT"}}, {"type": "Feature", "geometry": {"type": "Point", "coordinates": [79.62164089526568, 29.916634607695723]}, "properties": {"name_of_to": "BAIJNATH TEMPLE", "district": "BAGESHWAR"}}, {"type": "Feature", "geometry": {"type": "Point", "coordinates": [79.58809887872384, 29.957912326946705]}, "properties": {"name_of_to": "PAJENA", "district": "BAGESHWAR"}}, {"type": "Feature", "geometry": {"type": "Point", "coordinates": [79.30831929300135, 30.043144897697747]}, "properties": {"name_of_to": "GAIRSAIN", "district": "CHAMOLI"}}, {"type": "Feature", "geometry": {"type": "Point", "coordinates": [79.35949383407483, 29.868497682972286]}, "properties": {"name_of_to": "CHAUKHUTIA", "district": "ALMORA"}}, {"type": "Feature", "geometry": {"type": "Point", "coordinates": [79.2988652408478, 29.802258344830268]}, "properties": {"name_of_to": "MANSI", "district": "ALMORA"}}, {"type": "Feature", "geometry": {"type": "Point", "coordinates": [79.19808131458592, 29.55020660874306]}, "properties": {"name_of_to": "TOTA AM", "district": "ALMORA"}}, {"type": "Feature", "geometry": {"type": "Point", "coordinates": [79.43627590916093, 29.77140080989889]}, "properties": {"name_of_to": "DWARAHAT", "district": "ALMORA"}}, {"type": "Feature", "geometry": {"type": "Point", "coordinates": [79.5985534053777, 29.78131320534006]}, "properties": {"name_of_to": "HATYURA(SOMESHWAR)", "district": "ALMORA"}}, {"type": "Feature", "geometry": {"type": "Point", "coordinates": [79.94164602376279, 30.043969548735262]}, "properties": {"name_of_to": "LOHARKHET", "district": "BAGESHWAR"}}, {"type": "Feature", "geometry": {"type": "Point", "coordinates": [80.03668038990892, 29.96886214236253]}, "properties": {"name_of_to": "SHAMA", "district": "BAGESHWAR"}}, {"type": "Feature", "geometry": {"type": "Point", "coordinates": [79.75389803358905, 29.702626548851686]}, "properties": {"name_of_to": "BINSAR", "district": "BAGESHWAR"}}, {"type": "Feature", "geometry": {"type": "Point", "coordinates": [79.81563997973586, 29.646222177409527]}, "properties": {"name_of_to": "PANUWANAULA", "district": "ALMORA"}}, {"type": "Feature", "geometry": {"type": "Point", "coordinates": [79.62644819203358, 29.648275869717175]}, "properties": {"name_of_to": "HAWALBAGH", "district": "ALMORA"}}, {"type": "Feature", "geometry": {"type": "Point", "coordinates": [79.45401766459095, 29.603561636763008]}, "properties": {"name_of_to": "CHAUBATTIA", "district": "ALMORA"}}, {"type": "Feature", "geometry": {"type": "Point", "coordinates": [79.83127486167061, 29.479857151131128]}, "properties": {"name_of_to": "SUNARI", "district": "ALMORA"}}, {"type": "Feature", "geometry": {"type": "Point", "coordinates": [79.65292897203152, 29.47535910562822]}, "properties": {"name_of_to": "MUKTESWAR", "district": "NAINITAL"}}, {"type": "Feature", "geometry": {"type": "Point", "coordinates": [79.55720055232715, 29.434550864017712]}, "properties": {"name_of_to": "RAMGARH", "district": "NAINITAL"}}, {"type": "Feature", "geometry": {"type": "Point", "coordinates": [79.56286302681596, 29.342416988041894]}, "properties": {"name_of_to": "BHIMTAL", "district": "NAINITAL"}}, {"type": "Feature", "geometry": {"type": "Point", "coordinates": [79.51796703994833, 29.380029809885837]}, "properties": {"name_of_to": "BHOWALI", "district": "NAINITAL"}}, {"type": "Feature", "geometry": {"type": "Point", "coordinates": [79.30236694612914, 29.388399943595484]}, "properties": {"name_of_to": "KOTABAGH", "district": "NAINI TAL"}}, {"type": "Feature", "geometry": {"type": "Point", "coordinates": [78.82413547930074, 29.280996107537675]}, "properties": {"name_of_to": "JASPUR", "district": "UDHAM SINGH NAGAR"}}, {"type": "Feature", "geometry": {"type": "Point", "coordinates": [79.15703252429897, 29.166352294111686]}, "properties": {"name_of_to": "BAZPUR", "district": "UDHAM SINGH NAGAR"}}, {"type": "Feature", "geometry": {"type": "Point", "coordinates": [79.20825486515812, 29.303318971360138]}, "properties": {"name_of_to": "BEL", "district": "NAINITAL"}}, {"type": "Feature", "geometry": {"type": "Point", "coordinates": [79.34865618824831, 29.278112951623843]}, "properties": {"name_of_to": "KALADHUNGI", "district": "NAINITAL"}}, {"type": "Feature", "geometry": {"type": "Point", "coordinates": [79.5382813242295, 29.261544716508517]}, "properties": {"name_of_to": "KATHGODAM", "district": "NAINITAL"}}, {"type": "Feature", "geometry": {"type": "Point", "coordinates": [79.51079518641521, 29.13107201330204]}, "properties": {"name_of_to": "JITPUR", "district": "NAINITAL"}}, {"type": "Feature", "geometry": {"type": "Point", "coordinates": [79.70391851892391, 29.119080636736523]}, "properties": {"name_of_to": "CHORGALLIA", "district": "NAINITAL"}}, {"type": "Feature", "geometry": {"type": "Point", "coordinates": [79.24715728760123, 29.04261854912285]}, "properties": {"name_of_to": "BARAKHERA", "district": "UDHAM SINGH NAGAR"}}, {"type": "Feature", "geometry": {"type": "Point", "coordinates": [79.94185177151913, 29.159939136763366]}, "properties": {"name_of_to": "DANDA", "district": "CHAMPAWAT"}}, {"type": "Feature", "geometry": {"type": "Point", "coordinates": [80.10230055986612, 29.269778558139592]}, "properties": {"name_of_to": "SWALA", "district": "CHAMPAWAT"}}, {"type": "Feature", "geometry": {"type": "Point", "coordinates": [80.08710790232993, 29.211514823201288]}, "properties": {"name_of_to": "DAYURI", "district": "CHAMPAWAT"}}, {"type": "Feature", "geometry": {"type": "Point", "coordinates": [79.97019614562538, 29.380106876004607]}, "properties": {"name_of_to": "DHUNAGHAT", "district": "CHAMPAWAT"}}, {"type": "Feature", "geometry": {"type": "Point", "coordinates": [79.86829688435473, 29.41092455669263]}, "properties": {"name_of_to": "DEVIDHURA", "district": "CHAMPAWAT"}}, {"type": "Feature", "geometry": {"type": "Point", "coordinates": [80.10136303993221, 29.40013755941353]}, "properties": {"name_of_to": "LOHAGHAT", "district": "CHAMPAWAT"}}, {"type": "Feature", "geometry": {"type": "Point", "coordinates": [80.20562851686127, 29.699203321458917]}, "properties": {"name_of_to": "DEWALTHAL", "district": "PITHORAGARH"}}, {"type": "Feature", "geometry": {"type": "Point", "coordinates": [80.34589367563947, 29.761760243537495]}, "properties": {"name_of_to": "ASKOT(DIGTAR)", "district": "PITHORAGARH"}}, {"type": "Feature", "geometry": {"type": "Point", "coordinates": [80.10183767655865, 30.098651700013257]}, "properties": {"name_of_to": "NAMIK", "district": "PITHORAGARH"}}, {"type": "Feature", "geometry": {"type": "Point", "coordinates": [80.18369656397552, 30.038203337333933]}, "properties": {"name_of_to": "GIRGAON", "district": "PITHORAGARH"}}, {"type": "Feature", "geometry": {"type": "Point", "coordinates": [80.25345780998016, 30.163335300068535]}, "properties": {"name_of_to": "LILAM", "district": "PITHORAGARH"}}, {"type": "Feature", "geometry": {"type": "Point", "coordinates": [79.9511877960942, 30.11239744593618]}, "properties": {"name_of_to": "KHATI", "district": "BAGESHWAR"}}, {"type": "Feature", "geometry": {"type": "Point", "coordinates": [79.99442696736347, 30.16710091647352]}, "properties": {"name_of_to": "DWALI", "district": "BAGESHWAR"}}, {"type": "Feature", "geometry": {"type": "Point", "coordinates": [78.42147459107414, 30.351189464560775]}, "properties": {"name_of_to": "CHAMBA", "district": "TEHRI GARHWAL"}}, {"type": "Feature", "geometry": {"type": "Point", "coordinates": [78.38216044221359, 30.262929599726732]}, "properties": {"name_of_to": "AMPATA", "district": "TEHRI GARHWAL"}}, {"type": "Feature", "geometry": {"type": "Point", "coordinates": [78.85050853219032, 30.634472369959706]}, "properties": {"name_of_to": "GANGI", "district": "TEHRI GARHWAL"}}, {"type": "Feature", "geometry": {"type": "Point", "coordinates": [78.81126279454747, 30.530655141769188]}, "properties": {"name_of_to": "GAWANA", "district": "TEHRI GARHWAL"}}, {"type": "Feature", "geometry": {"type": "Point", "coordinates": [78.99391398560329, 30.632131236724447]}, "properties": {"name_of_to": "TRIJUGI NARAYAN", "district": "RUDRA PRAYAG"}}, {"type": "Feature", "geometry": {"type": "Point", "coordinates": [78.94786272055057, 30.39750424239046]}, "properties": {"name_of_to": "KURCHHOLA", "district": "RUDRA PRAYAG"}}, {"type": "Feature", "geometry": {"type": "Point", "coordinates": [79.1544410666579, 30.597681423838793]}, "properties": {"name_of_to": "RANSI", "district": "RUDRAPRAYAG"}}, {"type": "Feature", "geometry": {"type": "Point", "coordinates": [79.071218635404, 30.734365199808156]}, "properties": {"name_of_to": "KEDARNATH", "district": "RUDRAPRAYAG"}}, {"type": "Feature", "geometry": {"type": "Point", "coordinates": [79.32427570791725, 30.524910130806695]}, "properties": {"name_of_to": "RUDRANATH", "district": "CHAMOLI"}}, {"type": "Feature", "geometry": {"type": "Point", "coordinates": [78.7160275642829, 30.260335087321927]}, "properties": {"name_of_to": "DANGCHAUNRA", "district": "TEHRI GARHWAL"}}, {"type": "Feature", "geometry": {"type": "Point", "coordinates": [80.12352952507682, 29.078339204992933]}, "properties": {"name_of_to": "TANAKPUR", "district": "UDHAM SINGH NAGAR"}}, {"type": "Feature", "geometry": {"type": "Point", "coordinates": [78.74952571588973, 29.507422598931917]}, "properties": {"name_of_to": "KALAGARH", "district": "GARHWAL"}}, {"type": "Feature", "geometry": {"type": "Point", "coordinates": [78.256343480689, 30.427760584606034]}, "properties": {"name_of_to": "DHANOLTI", "district": "TEHRI GARHWAL"}}, {"type": "Feature", "geometry": {"type": "Point", "coordinates": [78.65773219994335, 30.57122662153063]}, "properties": {"name_of_to": "THATI KATHUR", "district": "TEHRI GARHWAL"}}, {"type": "Feature", "geometry": {"type": "Point", "coordinates": [78.72715121944384, 30.072006864291595]}, "properties": {"name_of_to": "ADWANI", "district": "GARHWAL"}}, {"type": "Feature", "geometry": {"type": "Point", "coordinates": [79.08639989819012, 30.529141370581332]}, "properties": {"name_of_to": "GUPTKASHI", "district": "RUDRAPRAYAG"}}, {"type": "Feature", "geometry": {"type": "Point", "coordinates": [79.08035514714923, 30.490721305224373]}, "properties": {"name_of_to": "BARAMWARI", "district": "RUDRAPRAYAG"}}, {"type": "Feature", "geometry": {"type": "Point", "coordinates": [79.30017431800802, 29.31391430355672]}, "properties": {"name_of_to": "PARAO", "district": "NAINITAL"}}, {"type": "Feature", "geometry": {"type": "Point", "coordinates": [79.13649995725697, 29.49027085220209]}, "properties": {"name_of_to": "GARJIYA", "district": "NAINITAL"}}, {"type": "Feature", "geometry": {"type": "Point", "coordinates": [78.98700424118918, 30.153786595207034]}, "properties": {"name_of_to": "PAITHANI", "district": "GARHWAL"}}, {"type": "Feature", "geometry": {"type": "Point", "coordinates": [80.57773410096293, 30.31650024823784]}, "properties": {"name_of_to": "LEBONG", "district": "PITHORAGARH"}}]}