{"type": "FeatureCollection", "features": [{"type": "Feature", "geometry": {"type": "Point", "coordinates": [79.77585921721007, 29.82609715170958]}, "properties": {"DISTRICT": "Bageshwar", "DIST_HQ": "Bageshwar", "LONGITUDE": 79.7758592172, "LATITUDE": 29.8260971517}}, {"type": "Feature", "geometry": {"type": "Point", "coordinates": [79.40181907980077, 29.00132247167788]}, "properties": {"DISTRICT": "Udham Singh Nagar", "DIST_HQ": "Rudrapur", "LONGITUDE": 79.4018190798, "LATITUDE": 29.0013224717}}, {"type": "Feature", "geometry": {"type": "Point", "coordinates": [78.44384234249117, 30.729892798663975]}, "properties": {"DISTRICT": "UTTARKASHI", "DIST_HQ": "UTTARKASHI", "LONGITUDE": 78.4438423425, "LATITUDE": 30.7298927987}}, {"type": "Feature", "geometry": {"type": "Point", "coordinates": [78.0403614230122, 30.316614797368313]}, "properties": {"DISTRICT": "DEHRA DUN", "DIST_HQ": "DEHRA DUN", "LONGITUDE": 78.040361423, "LATITUDE": 30.3166147974}}, {"type": "Feature", "geometry": {"type": "Point", "coordinates": [78.77659106367025, 30.14988816044759]}, "properties": {"DISTRICT": "PAURI GARHWAL", "DIST_HQ": "PAURI", "LONGITUDE": 78.7765910637, "LATITUDE": 30.1498881604}}, {"type": "Feature", "geometry": {"type": "Point", "coordinates": [78.43115660775547, 30.375087919893904]}, "properties": {"DISTRICT": "TEHRI GARHWAL", "DIST_HQ": "NEW TEHRI", "LONGITUDE": 78.4311566078, "LATITUDE": 30.3750879199}}, {"type": "Feature", "geometry": {"type": "Point", "coordinates": [78.04473512211841, 29.965881371174355]}, "properties": {"DISTRICT": "HARIDWAR", "DIST_HQ": "HARIDWAR", "LONGITUDE": 78.0447351221, "LATITUDE": 29.9658813712}}, {"type": "Feature", "geometry": {"type": "Point", "coordinates": [79.32199272028848, 30.412453843393482]}, "properties": {"DISTRICT": "CHAMOLI", "DIST_HQ": "GOPESHWAR", "LONGITUDE": 79.3219927203, "LATITUDE": 30.4124538434}}, {"type": "Feature", "geometry": {"type": "Point", "coordinates": [79.65732490218713, 29.596742301434947]}, "properties": {"DISTRICT": "ALMORA", "DIST_HQ": "ALMORA", "LONGITUDE": 79.6573249022, "LATITUDE": 29.5967423014}}, {"type": "Feature", "geometry": {"type": "Point", "coordinates": [79.46206040001404, 29.378542609668184]}, "properties": {"DISTRICT": "NAINI TAL", "DIST_HQ": "NAINI TAL", "LONGITUDE": 79.4620604, "LATITUDE": 29.3785426097}}, {"type": "Feature", "geometry": {"type": "Point", "coordinates": [80.20762272549072, 29.57873461842959]}, "properties": {"DISTRICT": "PITHORAGARH", "DIST_HQ": "PITHORAGARH", "LONGITUDE": 80.2076227255, "LATITUDE": 29.5787346184}}, {"type": "Feature", "geometry": {"type": "Point", "coordinates": [80.0900063470197, 29.34396565164818]}, "properties": {"DISTRICT": "CHAMPAWAT", "DIST_HQ": "CHAMPAWAT", "LONGITUDE": 80.090006347, "LATITUDE": 29.3439656516}}, {"type": "Feature", "geometry": {"type": "Point", "coordinates": [79.00254337026833, 30.305858662747134]}, "properties": {"DISTRICT": "RUDRAPRAYAG", "DIST_HQ": "RUDRAPRAYAG", "LONGITUDE": 79.0025433703, "LATITUDE": 30.3058586627}}]}